[{
        "id": "1",
        "name": "Citadel-of-Qaitbay",
        "latlong": {
            "lat": 31.214011,
            "lng": 29.885638
        }
    },
    {
        "id": "2",
        "name": "Roman-Amphitheater",
        "latlong": {
            "lat": 31.194722,
            "lng": 29.904182
        }
    },
    {
        "id": "3",
        "name": "Bibliotheca-Alexandrina",
        "latlong": {
            "lat": 31.208870,
            "lng": 29.909201
        }
    },
    {
        "id": "4",
        "name": "Pompey's-Pillar",
        "latlong": {
            "lat": 31.184909,
            "lng": 29.899208
        }
    },
    {
        "id": "5",
        "name": "Royal-Jewelry-Museum",
        "latlong": {
            "lat": 31.240700,
            "lng": 29.963300
        }
    }
]